[
  {
    "id": 1,
    "name": "상수직영점",
    "address": "서울특별시 마포구 독막로19길 32, 지하층 B103호(상수동)",
    "addrInfo": ["04067", "상수동 71-15"],
    "tel": "02-3144-0889",
    "hours": "11:00 ~ 22:00",
    "latlng": [37.549305, 126.924563]
  },
  {
    "id": 2,
    "name": "일산후곡점",
    "address": "경기도고양시 일산서구 일산로547",
    "addrInfo": ["10375", "일산동 1085-1"],
    "tel": "031-917-8972",
    "hours": "11:00 ~ 23:00",
    "latlng": [37.6776374, 126.7670771]
  },
  {
    "id": 3,
    "name": "대치본점",
    "address": "서울특별시 강남구 삼성로 301",
    "addrInfo": ["06209", "대치동 941-18"],
    "tel": "070-4269-4992",
    "hours": "12:00 ~ 23:00",
    "latlng": [37.499044, 127.060778]
  },
  {
    "id": 4,
    "name": "평촌학원가점",
    "address": "경기도 안양시 동안구 평촌대로 131 아카데미센터 102호",
    "addrInfo": ["14099", "호계동 1058-7"],
    "tel": "070-4254-8008",
    "hours": "11:00 ~ 23:00",
    "latlng": [37.3836681, 126.9592827]
  },
  {
    "id": 5,
    "name": "수원성대",
    "address": "경기도 수원시 장안구 서부로2126번길 18",
    "addrInfo": ["16417", "율전동 290-14"],
    "tel": "031-292-1222",
    "hours": "11:00 ~ 23:00",
    "latlng": [37.2977772, 126.9726724]
  },
  {
    "id": 6,
    "name": "광진CSS",
    "address": "서울특별시 광진구 광나루로 361, B101호-1호(군자동, 광진동양파라곤2단지)",
    "addrInfo": ["05003", "군자동 358-9"],
    "tel": "070-4420-2373",
    "hours": "14:00 ~ 23:00",
    "latlng": [37.5483998, 127.0697313]
  },
  {
    "id": 7,
    "name": "한티역점",
    "address": "서울특별시 강남구 선릉로64길 7, 1층 101호(대치동)",
    "addrInfo": ["06205", "대치동 922-22"],
    "tel": "070-4456-8975",
    "hours": "12:00 ~ 22:00",
    "latlng": [37.4979018, 127.0528842]
  },
  {
    "id": 8,
    "name": "제주시청점",
    "address": "제주시 이도2동 1179-3",
    "addrInfo": ["63209", "이도이동 1179-3"],
    "tel": "064-725-9033",
    "hours": "11:00 ~ 22:00",
    "latlng": [33.498224, 126.531198]
  },
  {
    "id": 9,
    "name": "건대점",
    "address": "서울특별시 광진구 아차산로 219, 1층 103호 (화양동, 삼영빌딩)",
    "addrInfo": ["05019", "화양동 48-14"],
    "tel": "070-8855-6367",
    "hours": "10:00 ~ 23:30",
    "latlng": [37.541237, 127.068011]
  },
  {
    "id": 10,
    "name": "성남수진역점",
    "address": "경기도 성남시 중원구 원터로 116",
    "addrInfo": ["13358", "성남동 2142"],
    "tel": "031-602-0089",
    "hours": "11:00 ~ 23:00",
    "latlng": [37.4369621, 127.1417944]
  },
  {
    "id": 11,
    "name": "부산광복점",
    "address": "부산광역시 중구 광복로97번안길 8(광복동1가)",
    "addrInfo": ["49223", "부민동1가 16-1"],
    "tel": "051-638-9296",
    "hours": "15:00 ~ 02:00",
    "latlng": [35.0992015, 129.0345795]
  },
  {
    "id": 12,
    "name": "일산라페스타점",
    "address": "경기도 고양시 일산동구 중앙로1275번길 38-5",
    "addrInfo": ["10401", "장항동 770-2"],
    "tel": "031-901-6362",
    "hours": "11:00 ~ 22:00",
    "latlng": [37.6594219, 126.770358]
  },
  {
    "id": 13,
    "name": "홍대 펍다트",
    "address": "서울특별시 마포구 어울마당로 74 2층",
    "addrInfo": ["04041", "금광빌딩"],
    "tel": " 02-336-7770",
    "hours": "13:30 ~ 22:00",
    "latlng": [37.551799, 126.921515]
  },
  {
    "id": 14,
    "name": "분당서현점",
    "address": "경기 성남시 분당구 서현로 192 102호",
    "addrInfo": ["13590", "서현동 251-1"],
    "tel": "031-709-9022",
    "hours": "11:00 ~ 22:00",
    "latlng": [37.387938, 127.124417]
  },
  {
    "id": 15,
    "name": "부산동아대점",
    "address": "부산광역시 서구 구덕로 220",
    "addrInfo": ["49223", "부민동1가 16-1"],
    "tel": "051-254-1004",
    "hours": "11:00 ~ 23:00",
    "latlng": [35.1054234, 129.0210376]
  },
  {
    "id": 16,
    "name": "진주경상대점",
    "address": "경상남도 진주시 가좌동 868-33 1층",
    "addrInfo": ["52822", "가좌동 868-33"],
    "tel": "055-922-9797",
    "hours": "11:00 ~ 22:00",
    "latlng": [35.1557325, 128.105508]
  },
  {
    "id": 17,
    "name": "홍성점",
    "address": "충청남도 홍성군 홍성읍 아문길29번길 67",
    "addrInfo": ["32230", "홍성읍 오관리 265-12"],
    "tel": "041-633-7171",
    "hours": "11:00 ~ 22:00",
    "latlng": [36.6011938, 126.66496]
  },
  {
    "id": 18,
    "name": "까치산점",
    "address": "서울특별시 강서구 화곡동 341-71",
    "addrInfo": ["07757", "화곡동 341-71"],
    "tel": "02-2606-9893",
    "hours": "10:00 ~ 22:30",
    "latlng": [37.531578, 126.847148]
  },
  {
    "id": 19,
    "name": "중계학원가",
    "address": "서울특별시 노원구 한글비석로 250 그린코아빌딩 115호",
    "addrInfo": ["01734", "중계동 364-20"],
    "tel": "02-934-9090",
    "hours": "11:00 ~ 23:00",
    "latlng": [37.6499858, 127.0769999]
  },
  {
    "id": 20,
    "name": "원주무실",
    "address": "강원도 원주시 능라동길 48 시네프라자 1층 110호",
    "addrInfo": ["26392", "무실동 1855-1"],
    "tel": "070-8877-8853",
    "hours": "11:00 ~ 22:00",
    "latlng": [37.3340866, 127.9295502]
  },
  {
    "id": 21,
    "name": "익산영등",
    "address": "전라북도 익산시 고봉로 314 1층",
    "addrInfo": ["54545", "영등동 827-4"],
    "tel": "063-835-1800",
    "hours": "11:00 ~ 23:00",
    "latlng": [35.9597563, 126.9714704]
  },
  {
    "id": 22,
    "name": "명지대점",
    "address": "서울특별시 서대문구 남가좌동 369-10 상가동 B315호",
    "addrInfo": ["03670", "남가좌동 369-10"],
    "tel": "02-3152-7001",
    "hours": "11:00 ~ 22:00",
    "latlng": [37.578479, 126.921976]
  },
  {
    "id": 23,
    "name": "구미형곡송정점",
    "address": "경상북도 구미시 송정대로 11, 1층",
    "addrInfo": ["39284", "송정동 27-8"],
    "tel": "054-457-9181",
    "hours": "11:00 ~ 23:00",
    "latlng": [36.1170758, 128.3401725]
  },
  {
    "id": 24,
    "name": "다산신도시점",
    "address": "경기도 남양주시 다산중앙로119, 솔보프라자 112호",
    "addrInfo": ["12248", "다산동 6089"],
    "tel": "031-552-8989",
    "hours": "11:00 ~ 23:00",
    "latlng": [37.6239712, 127.1476488]
  },
  {
    "id": 25,
    "name": "연신내1호점",
    "address": "서울특별시 은평구 갈현동 394-25",
    "addrInfo": ["03329", "갈현동 394-25"],
    "tel": "02-386-6288",
    "hours": "11:00 ~ 23:00",
    "latlng": [37.6212108, 126.9192409]
  },
  {
    "id": 26,
    "name": "신촌1호점",
    "address": "서울특별시 서대문구 신촌로 139-1, 1층",
    "addrInfo": ["03780", "대현동 104-58"],
    "tel": "02-363-6675",
    "hours": "11:00 ~ 23:00",
    "latlng": [37.556931, 126.94144]
  },
  {
    "id": 27,
    "name": "목동2단지점",
    "address": "서울특별시양천구 목동서로 57, 1층113호",
    "addrInfo": ["07983", "목동 907-10"],
    "tel": "02-2062-8858",
    "hours": "11:00 ~ 23:00",
    "latlng": [37.5366425, 126.8798545]
  },
  {
    "id": 28,
    "name": "파주야당역점",
    "address": "경기도 파주시 경의로 1092, 유은타워 104호",
    "addrInfo": ["10908", "야당동 1072"],
    "tel": "031-994-0028",
    "hours": "11:00 ~ 23:00",
    "latlng": [37.715182, 126.760199]
  },
  {
    "id": 28,
    "name": "서울대점",
    "address": "서울시관악구 신림동 1522-5",
    "addrInfo": ["08813", "신림동 1522"],
    "tel": "02-883-7776",
    "hours": "11:00 ~ 22:00",
    "latlng": [37.469823, 126.934904]
  },
  {
    "id": 29,
    "name": "광주금남로점",
    "address": "광주광역시 동구 중앙로196번길 31, (대의동) 1층",
    "addrInfo": ["61475", "대의동 83-2"],
    "tel": "062-223-3337",
    "hours": "10:00 ~ 22:00",
    "latlng": [35.1488204, 126.9186428]
  },
  {
    "id": 30,
    "name": "광주수완점",
    "address": "광주광역시 광산구 임방울대로 352 105호, (대의동) 1층",
    "addrInfo": ["62247", "수완동 1079"],
    "tel": "062-959-7772",
    "hours": "11:00 ~ 23:00",
    "latlng": [35.191364, 126.8244348]
  },
  {
    "id": 31,
    "name": "영남대점",
    "address": "경상북도 경산시 대학로 280 영남대학교 경산캠퍼스 인문계식당",
    "addrInfo": ["", ""],
    "tel": "010-8226-6209",
    "hours": "11:00 ~ 19:00",
    "latlng": [35.8367325, 128.754368]
  },
  {
    "id": 32,
    "name": "영종도점",
    "address": "인천광역시 중구 흰바위로 36",
    "addrInfo": ["22370", "운서동 2788-6"],
    "tel": "032-746-8789",
    "hours": "11:00 ~ 22:00",
    "latlng": [37.4913221, 126.488999]
  },
  {
    "id": 33,
    "name": "카이스트점",
    "address": "대전광역시 유성구 대학로 291, 카이스트본원석박사학생회관 w2 2층",
    "addrInfo": ["34141", "구성동 23"],
    "tel": "042-350-0875",
    "hours": "10:00 ~ 19:00",
    "latlng": [36.3721427, 127.36039]
  },
  {
    "id": 34,
    "name": "전북대점",
    "address": "전라북도 전주시 덕진구 덕진동1가 664-6 원플러스상가 1동 105호",
    "addrInfo": ["54898", "덕진동1가 664-6"],
    "tel": "063-221-7177",
    "hours": "11:00 ~ 22:00",
    "latlng": [35.8399399, 127.131129]
  },
  {
    "id": 35,
    "name": "등촌역점",
    "address": "서울시양천구 목3동 609-17 1층",
    "addrInfo": ["07946", "목동 609-19"],
    "tel": "02-3664-6775",
    "hours": "11:00 ~ 22:00",
    "latlng": [37.55128, 126.867428]
  },
  {
    "id": 36,
    "name": "고대안암",
    "address": "서울특별시 성북구 고려대로 27길 24-2",
    "addrInfo": ["02842", "안암동5가 15-38"],
    "tel": "070-4116-9981",
    "hours": "10:00 ~ 22:00",
    "latlng": [37.5873167, 127.0298837]
  },
  {
    "id": 37,
    "name": "군산미장점",
    "address": "대전광역시 대덕구 선비마을로 23번길 67, 101호",
    "addrInfo": ["54085", "미장동 501-12"],
    "tel": "070-7543-5414",
    "hours": "11:00 ~ 22:00",
    "latlng": [35.9652531, 126.7090455]
  },
  {
    "id": 38,
    "name": "대전송촌점",
    "address": "대전광역시 대덕구 선비마을로 23번길 67, 101호",
    "addrInfo": ["34404", "송촌동 495-4"],
    "tel": "042-621-3577",
    "hours": "11:00 ~ 22:00",
    "latlng": [36.3650571, 127.4444609]
  },
  {
    "id": 39,
    "name": "인천계양점",
    "address": "인천광역시 계양구 도두리로 33",
    "addrInfo": ["21069", "계산동 1083-4"],
    "tel": "032-552-1202",
    "hours": "10:00 ~ 23:00",
    "latlng": [37.5340367, 126.7380841]
  },
  {
    "id": 40,
    "name": "한남대점",
    "address": "대전광역시 대덕구 한남로 70 한남대학교 56주년 기념관 1층 고피자 (오정동 133)",
    "addrInfo": ["34432", "오정동 172-3"],
    "tel": "042-629-7452",
    "hours": "10:00 ~ 20:00",
    "latlng": [36.3544294, 127.4227297]
  },
  {
    "id": 41,
    "name": "강원화천점",
    "address": "강원도 화천군 중앙로 4-1 (하리 43-21번지)",
    "addrInfo": ["24130", "화천읍 하리 43-21"],
    "tel": "033-442-8077",
    "hours": "11:00 ~ 22:00",
    "latlng": [38.1038284, 127.7055385]
  },
  {
    "id": 42,
    "name": "전남대점",
    "address": "광주광역시 북구 호동로 16, 1층(중흥동)",
    "addrInfo": ["61190", "중흥동 279-2"],
    "tel": "070-4007-0909",
    "hours": "11:00 ~ 22:00",
    "latlng": [35.1748761, 126.9142338]
  },
  {
    "id": 43,
    "name": "부산사직점",
    "address": "부산광역시 동래구 사직로14번가길 16 (사직동) 삼정그린코아더베스트2차 상가 103호",
    "addrInfo": ["47867", "사직동 1055"],
    "tel": "051-505-0820",
    "hours": "11:00 ~ 22:00",
    "latlng": [35.1969771, 129.0633066]
  },
  {
    "id": 44,
    "name": "인천구월NC점",
    "address": "인천광역시 남동구 인하로 485 뉴코아아울렛 인천점 지하1층",
    "addrInfo": ["21574", "구월동 1465-2"],
    "tel": "032-430-5143",
    "hours": "11:00 ~ 21:00",
    "latlng": [37.4442249, 126.7007431]
  },
  {
    "id": 45,
    "name": "대전둔산점",
    "address": "대전광역시 서구 둔산동 1453번지 대덕프라자 110호",
    "addrInfo": ["35241", "둔산동 1454"],
    "tel": "042-486-1262",
    "hours": "11:00 ~ 22:00",
    "latlng": [36.3509516, 127.3881494]
  },
  {
    "id": 46,
    "name": "거제고현점",
    "address": "경상남도 거제시 고현동 100-12 1층",
    "addrInfo": ["53253", "고현동 100-12"],
    "tel": "055-633-1253",
    "hours": "11:00 ~ 22:00",
    "latlng": [34.8868943, 128.6233189]
  },
  {
    "id": 47,
    "name": "청주복대점",
    "address": "충청북도 청주시 흥덕구 대농로 42-21",
    "addrInfo": ["28427", "복대동 545-8"],
    "tel": "043-234-7774",
    "hours": "11:00 ~ 22:00",
    "latlng": [36.641411, 127.426412]
  },
  {
    "id": 48,
    "name": "상일동역점",
    "address": "서울특별시 강동구 고덕로 385",
    "addrInfo": ["05223", "고덕그라시움(제4상가)"],
    "tel": "02-481-5556",
    "hours": "11:00 ~ 21:30",
    "latlng": [37.557236, 127.168428]
  },
  {
    "id": 49,
    "name": "놀다가게",
    "address": "서울특별시 강남구 강남대로94길 10",
    "addrInfo": ["06134", "역삼동 819"],
    "tel": "02-561-8831",
    "hours": "11:00 ~ 22:00",
    "latlng": [37.4991618, 127.0281867]
  },
  {
    "id": 50,
    "name": "행당점",
    "address": "서울특별시성동구 행당로101",
    "addrInfo": ["04714", "행당동 317-113"],
    "tel": "02-6949-4959",
    "hours": "12:00 ~ 23:00",
    "latlng": [37.557982, 127.03011]
  },
  {
    "id": 51,
    "name": "봉천점",
    "address": "서울특별시 관악구 장군봉1길 56, 지하1층 7호(봉천동, 우형빌딩)",
    "addrInfo": ["08785", "봉천동 928-1"],
    "tel": "070-4848-2567",
    "hours": "10:30 ~ 23:30",
    "latlng": [37.481584, 126.943037]
  }
]
